City_ID,City,Lat,Lng,Max Temp,Humidity,Cloudiness,Wind Speed,Country,Date
0,albany,42.6001,-73.9662,17.36,79,79,3.44,US,1717980233
1,georgetown,5.4112,100.3354,26.96,88,40,2.57,MY,1717980040
2,upata,8.0086,-62.3989,23.36,94,100,1.63,VE,1717980233
3,bilibino,68.0546,166.4372,12.91,39,54,1.32,RU,1717980233
4,port-aux-francais,-49.35,70.2167,3.08,87,100,17.36,TF,1717980234
5,vilyuysk,63.7553,121.6247,21.11,36,25,2.24,RU,1717980234
6,argo,37.6333,22.7333,25.02,53,0,1.76,GR,1717980234
7,ola,59.5833,151.2833,8.97,85,99,2.18,RU,1717980234
8,adamstown,-25.066,-130.1015,22.31,75,100,5.65,PN,1717980235
9,grytviken,-54.2811,-36.5092,-7.11,77,22,5.18,GS,1717980235
10,olonkinbyen,70.9221,-8.7187,-1.02,85,100,6.55,SJ,1717980235
11,ketchikan,55.3422,-131.6461,16.26,27,75,6.17,US,1717979972
12,labrador city,52.9463,-66.9114,19.95,45,40,3.09,CA,1717980236
13,yellowknife,62.456,-114.3525,17.29,39,75,4.63,CA,1717980236
14,thompson,55.7435,-97.8558,19.09,24,20,2.06,CA,1717980236
15,wailua homesteads,22.0669,-159.378,30.24,73,0,6.69,US,1717980236
16,guerrero negro,27.9769,-114.0611,18.41,71,5,8.08,MX,1717980237
17,vadso,70.0744,29.7487,4.49,93,100,6.17,NO,1717980237
18,zhangye,38.9342,100.4517,25.71,15,100,6.0,CN,1717980237
19,waitangi,-43.9535,-176.5597,13.79,96,100,4.92,NZ,1717980237
20,papao,-17.75,-149.55,25.82,88,100,5.88,PF,1717980238
21,arno,60.1167,18.6333,9.88,83,99,6.02,SE,1717980238
22,edinburgh of the seven seas,-37.0676,-12.3116,12.25,80,100,7.91,SH,1717980238
23,avarua,-21.2078,-159.775,25.03,53,20,3.6,CK,1717980238
24,el calafate,-50.3408,-72.2768,1.25,98,100,1.42,AR,1717980239
25,bethel,41.3712,-73.414,20.98,74,0,3.09,US,1717980239
26,cova figueira,14.8905,-24.2934,17.99,79,0,4.48,CV,1717980239
27,chiang klang,19.2938,100.8617,25.49,96,100,1.38,TH,1717980239
28,puerto natales,-51.7236,-72.4875,1.41,99,100,2.33,CL,1717980240
29,akrehamn,59.2667,5.1833,11.34,87,100,10.29,NO,1717980240
30,weining,26.85,104.2333,16.36,86,83,0.73,CN,1717980240
31,mugia,43.1041,-9.2179,13.84,80,10,10.21,ES,1717980240
32,moyale,3.5167,39.0584,19.71,65,100,5.6,KE,1717980241
33,sisimiut,66.9395,-53.6735,0.83,99,100,2.65,GL,1717980241
34,qaqortoq,60.7167,-46.0333,6.75,89,94,1.45,GL,1717980241
35,i-n-salah,27.1935,2.4607,36.08,13,8,4.2,DZ,1717980242
36,stanley,54.868,-1.6985,8.73,90,20,2.06,GB,1717980242
37,mejit,10.2753,170.8646,28.41,79,100,7.15,MH,1717980242
38,margaret river,-33.95,115.0667,15.43,62,100,9.9,AU,1717980242
39,puerto ayora,-0.7393,-90.3518,23.08,97,43,3.01,EC,1717980243
40,papatowai,-46.5619,169.4708,8.72,74,4,4.24,NZ,1717980243
41,west island,-12.1568,96.8225,26.99,94,40,2.06,CC,1717980243
42,ribeira grande,38.5167,-28.7,18.21,89,91,2.68,PT,1717980243
43,cockburn town,21.4612,-71.1419,27.22,86,100,5.07,TC,1717980244
44,tolanaro,-25.0319,46.9987,17.04,82,75,2.06,MG,1717980244
45,blackmans bay,-43.0167,147.3167,9.74,66,5,0.45,AU,1717980244
46,isafjordur,66.0755,-23.124,3.74,88,18,1.18,IS,1717980244
47,acarau,-2.8856,-40.12,25.74,88,100,5.03,BR,1717980245
48,kikwit,-5.041,18.8162,21.54,38,100,1.26,CD,1717980245
49,ballina,-28.8667,153.5667,18.77,62,100,3.53,AU,1717980245
50,zelenoborskiy,66.845,32.3622,6.45,87,85,4.35,RU,1717980245
51,sao joaquim,-28.2939,-49.9317,11.16,94,4,1.61,BR,1717980246
52,longyearbyen,78.2186,15.6401,1.91,80,75,4.63,SJ,1717980246
53,touros,-5.1989,-35.4608,25.6,81,100,5.98,BR,1717980246
54,hithadhoo,-0.6,73.0833,28.14,75,51,2.28,MV,1717980247
55,saint croix,17.7397,-64.7388,27.25,81,0,2.57,VI,1717980247
56,badger,64.8,-147.5333,28.33,20,75,1.54,US,1717980247
57,ngambe,4.2333,10.6167,21.41,100,100,1.21,CM,1717980247
58,udachny,66.4167,112.4,21.36,32,42,4.26,RU,1717980248
59,pacific grove,36.6177,-121.9166,21.42,81,75,4.63,US,1717980248
60,petropavlovsk-kamchatsky,53.0452,158.6483,17.33,75,75,5.81,RU,1717980211
61,alaghsas,17.0187,8.0168,31.94,10,0,5.1,NE,1717980248
62,russellville,35.2784,-93.1338,23.41,81,75,3.6,US,1717980248
63,forster,-32.1667,152.5167,16.27,63,0,5.76,AU,1717980249
64,colonia,50.9333,6.95,11.57,81,0,0.51,DE,1717979952
65,virginia beach,36.8529,-75.978,28.03,65,75,4.63,US,1717980166
66,kerikeri,-35.2268,173.9474,22.17,79,17,1.34,NZ,1717980249
67,hamilton,39.1834,-84.5333,23.97,44,75,3.6,US,1717980250
68,aykhal,66.0,111.5,21.09,29,19,3.53,RU,1717980250
69,vengerovo,55.6848,76.7471,14.49,83,100,4.18,RU,1717980250
70,kalmunai,7.4167,81.8167,26.33,82,52,3.13,LK,1717980250
71,ushuaia,-54.8,-68.3,-3.19,86,0,2.06,AR,1717980251
72,san antonio de pale,-1.4014,5.6325,24.53,81,100,5.27,GQ,1717980251
73,ulladulla,-35.35,150.4667,13.75,66,8,4.15,AU,1717980251
74,zardob,40.2183,47.7083,24.05,58,100,0.63,AZ,1717980251
75,hawaiian paradise park,19.5933,-154.9731,27.73,69,40,5.14,US,1717980252
76,lebu,-37.6167,-73.65,12.59,87,42,7.8,CL,1717980252
77,college,64.8569,-147.8028,28.38,22,75,1.54,US,1717980116
78,port douglas,-16.4833,145.4667,21.91,61,9,3.15,AU,1717980252
79,invercargill,-46.4,168.35,8.9,75,1,2.24,NZ,1717980252
80,nikopol,47.5712,34.3964,21.92,52,40,3.38,UA,1717980253
81,island harbour,50.724,-1.2758,14.43,77,100,1.34,GB,1717980253
82,recani,31.2846,-4.2688,27.02,16,81,3.26,MA,1717980253
83,saldanha,-33.0117,17.9442,14.26,58,0,4.39,ZA,1717980253
84,brookings,44.3114,-96.7984,23.0,35,0,6.17,US,1717980254
85,keetmanshoop,-26.5833,18.1333,12.24,48,89,6.11,NA,1717980254
86,bredasdorp,-34.5322,20.0403,9.96,91,10,1.44,ZA,1717980254
87,st. john's,47.5649,-52.7093,11.55,94,100,8.23,CA,1717980255
88,tsiombe,-25.3,45.4833,17.75,63,95,4.26,MG,1717980255
89,ilulissat,69.2167,-51.1,3.01,93,75,1.03,GL,1717980255
90,callao,-12.0667,-77.15,18.73,72,100,4.63,PE,1717980009
91,ogoja,6.6547,8.7976,23.84,95,100,3.52,NG,1717980256
92,luganville,-15.5333,167.1667,27.84,68,99,3.44,VU,1717980256
93,port saint john's,-31.6229,29.5448,15.35,60,0,2.64,ZA,1717980256
94,puerto armuelles,8.2833,-82.8667,27.27,72,100,1.79,PA,1717980256
95,tanabe,33.7333,135.3667,22.56,78,75,2.06,JP,1717980257
96,cabo san lucas,22.8909,-109.9124,25.17,73,0,4.47,MX,1717979769
97,burutu,5.3509,5.5076,25.1,92,100,1.7,NG,1717980257
98,al artawiyah,26.5053,45.3444,30.83,13,0,0.72,SA,1717980257
99,usogorsk,63.4106,48.6872,7.59,92,56,2.26,RU,1717980257
100,praia da vitoria,38.7333,-27.0667,18.14,88,20,3.34,PT,1717980258
101,port mathurin,-19.6833,63.4167,23.81,82,97,9.49,MU,1717980258
102,tanumah,27.1,44.1333,34.59,15,100,3.26,SA,1717980258
103,queenstown,-31.8976,26.8753,7.34,60,6,2.36,ZA,1717980259
104,iqaluit,63.7506,-68.5145,2.85,64,20,6.17,CA,1717980259
105,atafu village,-8.5421,-172.5159,28.84,72,7,3.32,TK,1717980259
106,tiksi,71.6872,128.8694,2.25,85,94,3.21,RU,1717980259
107,struthers,41.0526,-80.6078,20.38,59,100,2.57,US,1717980259
108,walvis bay,-22.9575,14.5053,17.83,61,6,3.97,NA,1717980260
109,talnakh,69.4865,88.3972,3.45,98,100,2.43,RU,1717980260
110,happy valley-goose bay,53.3168,-60.3315,16.17,72,40,5.66,CA,1717980261
111,zeribet el oued,34.6828,6.5111,31.79,16,100,2.25,DZ,1717980261
112,'ali al gharbi,32.4633,46.6864,35.19,22,22,9.06,IQ,1717980261
113,afaahiti,-17.75,-149.2833,24.93,87,100,6.82,PF,1717980261
114,rabigh,22.7986,39.0349,29.29,64,34,3.5,SA,1717980261
115,santarem,-2.4431,-54.7083,25.07,94,20,0.51,BR,1717980262
116,corinto,37.9407,22.9573,25.68,58,1,1.7,GR,1717980262
117,tari,12.4086,4.4914,30.04,56,100,3.92,NG,1717980262
118,codrington,-38.2667,141.9667,11.07,64,100,4.71,AU,1717980262
119,port lincoln,-34.7333,135.8667,16.97,55,100,4.98,AU,1717980263
120,ocean city,39.2776,-74.5746,25.1,64,93,3.18,US,1717980092
121,santa terezinha,-29.9002,-50.0904,19.53,81,12,2.59,BR,1717980263
122,fort mcmurray,56.7268,-111.381,14.77,54,100,4.63,CA,1717980264
123,weno,7.4515,151.8468,28.97,84,100,2.06,FM,1717980264
124,constantia,44.1833,28.65,20.39,73,100,4.31,RO,1717980018
125,sinjhoro,26.0303,68.809,30.11,59,0,3.61,PK,1717980264
126,haiku-pauwela,20.9219,-156.3051,28.45,63,20,10.8,US,1717980265
127,san jose de feliciano,-30.3845,-58.7517,19.45,79,99,2.38,AR,1717980265
128,nuuk,64.1835,-51.7216,4.34,93,100,13.89,GL,1717980265
129,anori,-3.7728,-61.6442,23.68,97,100,0.99,BR,1717980265
130,salalah,17.0151,54.0924,30.05,84,75,4.63,OM,1717980266
131,phan thiet,10.9333,108.1,29.23,68,100,4.62,VN,1717980266
132,ciudad del este,-25.5167,-54.6167,26.41,61,0,3.6,PY,1717980267
133,utena,55.5,25.6,11.25,69,100,1.82,LT,1717980267
134,p'yongsong,39.2464,125.8719,24.63,64,20,1.09,KP,1717980267
135,iskateley,67.6803,53.1512,1.68,87,100,4.47,RU,1717980268
136,egilsstadir,65.2653,-14.3948,4.95,75,75,4.12,IS,1717980268
137,riohacha,11.5444,-72.9072,31.06,89,20,3.09,CO,1717980268
138,neiafu,-18.65,-173.9833,26.38,65,20,5.66,TO,1717980268
139,utrik,11.2278,169.8474,28.37,80,49,7.52,MH,1717980269
140,usinsk,65.9939,57.5281,7.26,92,100,5.81,RU,1717980269
141,tommot,58.9564,126.2925,20.29,54,82,1.45,RU,1717980270
142,dingzhou,38.5131,114.9956,29.06,21,10,1.19,CN,1717980270
143,hermanus,-34.4187,19.2345,12.67,78,5,4.55,ZA,1717980270
144,santa maria,-29.6842,-53.8069,25.61,57,0,2.57,BR,1717980270
145,praia,14.9215,-23.5087,22.51,83,0,5.24,CV,1717980271
146,hanawa,40.1836,140.7872,19.58,90,100,1.78,JP,1717980271
147,zinjibar,13.1287,45.3807,30.78,70,96,2.86,YE,1717980271
148,raja,8.4596,25.678,22.49,87,100,2.81,SS,1717980272
149,namibe,-15.1961,12.1522,19.96,87,5,3.11,AO,1717980272
150,jamestown,42.097,-79.2353,14.77,95,100,3.6,US,1717980272
151,guarapari,-20.6667,-40.4975,20.1,81,11,3.03,BR,1717980272
152,corfu,39.62,19.9197,25.66,83,20,1.03,GR,1717980272
153,panama city beach,30.1766,-85.8055,29.07,75,0,3.6,US,1717980273
154,lorengau,-2.0226,147.2712,30.63,69,96,4.85,PG,1717980273
155,qandala,11.472,49.8728,32.94,50,67,3.23,SO,1717980273
156,karratha,-20.7377,116.8463,21.99,55,0,4.65,AU,1717980274
157,new norfolk,-42.7826,147.0587,10.4,60,18,1.71,AU,1717980274
158,aasiaat,68.7098,-52.8699,1.1,99,100,3.7,GL,1717980274
159,puerto baquerizo moreno,-0.9,-89.6,22.34,89,78,3.71,EC,1717980274
160,northam,51.0333,-4.2167,13.67,86,100,9.06,GB,1717980275
161,mount gambier,-37.8333,140.7667,11.2,68,100,3.87,AU,1717980275
162,padang,-0.9492,100.3543,26.03,73,99,1.47,ID,1717980275
163,nova sintra,14.8667,-24.7167,23.89,79,1,6.54,CV,1717980275
164,prince george,53.9166,-122.753,21.27,40,75,1.54,CA,1717980275
165,yingshang chengguanzhen,32.6295,116.2701,29.24,49,57,2.43,CN,1717980276
166,leticia,-4.2153,-69.9406,24.03,100,20,1.03,CO,1717980276
167,bandarbeyla,9.4942,50.8122,26.85,71,94,12.46,SO,1717980276
168,carbonear,47.7332,-53.2148,11.81,92,100,5.2,CA,1717980277
169,guatire,10.4762,-66.5427,23.05,98,67,1.01,VE,1717980277
170,mili,6.0815,171.735,28.79,75,3,6.25,MH,1717980277
171,lompoc,34.6391,-120.4579,23.77,72,0,6.17,US,1717980277
172,portland,45.5234,-122.6762,26.72,56,20,4.12,US,1717980204
173,port alfred,-33.5906,26.891,15.73,60,3,3.32,ZA,1717980278
174,petawawa,45.9001,-77.3328,13.77,89,96,0.45,CA,1717980278
175,agramunt,41.7869,1.0968,18.87,69,100,1.96,ES,1717980278
176,prainha,-1.8,-53.48,23.87,95,99,0.83,BR,1717980279
177,port elizabeth,-33.918,25.5701,8.16,93,0,1.03,ZA,1717980279
178,kuusamo,65.9667,29.1833,10.02,93,75,3.09,FI,1717980279
179,lazaro cardenas,17.9583,-102.2,27.31,72,15,4.74,MX,1717980279
180,mabai,23.0128,104.4508,19.58,92,80,0.57,CN,1717980280
181,salinopolis,-0.6136,-47.3561,25.42,90,89,4.51,BR,1717980280
182,keflavik,64.0049,-22.5624,7.95,87,0,3.09,IS,1717980280
183,pandan,14.0453,124.1694,30.57,67,100,1.31,PH,1717980280
184,ponta delgada,37.7333,-25.6667,18.44,82,75,1.54,PT,1717980281
185,asahikawa,43.7678,142.3703,19.56,82,75,5.66,JP,1717980281
186,shakhtersk,48.0625,38.5167,16.03,86,5,1.24,UA,1717980281
187,luderitz,-26.6481,15.1594,21.41,26,39,7.06,NA,1717980281
188,gadzhiyevo,69.2551,33.3362,5.81,90,66,3.6,RU,1717980282
189,saipan,15.1355,145.701,32.39,66,40,6.17,MP,1717980282
190,minas de marcona,-15.2119,-75.1103,12.28,85,57,4.86,PE,1717980282
191,tuxpan,19.55,-103.4,25.86,68,2,2.98,MX,1717980282
192,anna regina,7.2644,-58.5077,26.06,83,100,2.93,GY,1717980283
193,kailua-kona,19.6406,-155.9956,27.98,73,75,4.63,US,1717980283
194,kodinsk,58.6881,99.1844,11.91,90,79,3.28,RU,1717980283
195,tazacorte,28.629,-17.9293,20.54,94,0,4.12,ES,1717980283
196,souillac,-20.5167,57.5167,24.21,78,75,5.66,MU,1717980284
197,val-d'or,48.1002,-77.7828,11.05,87,100,4.12,CA,1717980284
198,shangzhi,45.2167,127.9667,19.47,64,51,2.73,CN,1717980284
199,hasaki,35.7333,140.8333,21.27,80,99,4.48,JP,1717980284
200,lihue,21.9789,-159.3672,30.58,65,0,6.69,US,1717980285
201,kodiak,57.79,-152.4072,7.73,93,100,10.29,US,1717980285
202,sinop,41.7711,34.8709,16.31,65,45,3.52,TR,1717980285
203,itaituba,-4.2761,-55.9836,26.03,76,100,0.99,BR,1717980285
204,corner brook,48.9667,-57.9484,16.09,94,98,1.4,CA,1717980286
205,flying fish cove,-10.4217,105.6791,26.82,89,100,4.63,CX,1717980286
206,fortuna,40.5982,-124.1573,16.19,89,100,5.14,US,1717980286
207,jalingo,8.8833,11.3667,24.81,86,100,2.24,NG,1717980286
208,severomorsk,69.0689,33.4162,7.22,81,62,1.65,RU,1717980287
209,kaga bandoro,6.9896,19.1874,20.72,97,100,1.6,CF,1717980287
210,amungan,15.3652,119.9582,30.89,63,83,2.19,PH,1717980287
211,mount pearl,47.5166,-52.7813,11.09,94,100,8.23,CA,1717980288
212,salanso,12.1833,-4.0833,28.68,60,99,4.39,BF,1717980288
213,punta arenas,-53.15,-70.9167,2.06,87,100,2.57,CL,1717980288
214,greymouth,-42.4667,171.2,13.78,93,28,5.11,NZ,1717980288
215,tralee,52.2704,-9.7026,11.47,91,100,5.97,IE,1717980289
216,polatli,39.5772,32.1413,17.16,60,0,2.05,TR,1717980289
217,jiangyou,31.7667,104.7167,22.93,68,100,0.9,CN,1717980289
218,kuvshinovo,57.0295,34.1725,12.9,86,100,2.87,RU,1717980290
219,tazovsky,67.4667,78.7,4.2,69,93,4.66,RU,1717980290
220,motygino,58.1831,94.7592,9.32,95,100,1.79,RU,1717980291
221,glenfield park,-35.1372,147.334,12.42,82,0,1.34,AU,1717980291
222,isangel,-19.55,169.2667,29.06,70,40,3.09,VU,1717980291
223,dryden,49.7833,-92.7503,18.16,25,0,3.09,CA,1717980291
224,fale old settlement,-9.3852,-171.2468,28.13,79,88,6.83,TK,1717980292
225,manaure,11.7751,-72.4445,30.59,65,100,5.73,CO,1717980292
226,san patricio,28.017,-97.5169,32.05,67,0,6.8,US,1717980292
227,ancud,-41.8697,-73.8203,9.44,89,99,5.18,CL,1717980293
228,marsh harbour,26.5412,-77.0636,28.89,71,0,3.58,BS,1717980075
229,holualoa,19.6228,-155.9522,25.91,72,75,4.63,US,1717980293
230,mulanay,13.5222,122.4042,31.12,66,99,1.05,PH,1717980294
231,kirksville,40.1948,-92.5833,25.97,29,0,4.12,US,1717980294
232,kita,13.0349,-9.4895,27.65,59,93,2.21,ML,1717980294
233,bosaso,11.2842,49.1816,33.27,42,35,9.36,SO,1717980295
234,howrah,22.5892,88.3103,31.0,84,20,3.09,IN,1717980295
235,kone,-21.0595,164.8658,27.37,53,81,2.4,NC,1717980295
236,sao joao da barra,-21.6403,-41.0511,21.05,78,5,7.77,BR,1717980296
237,nar'yan-mar,67.6713,53.087,1.73,87,100,4.47,RU,1717980296
238,alofi,-19.0595,-169.9187,24.94,61,75,8.75,NU,1717980296
239,puerto carreno,6.189,-67.4859,25.99,89,20,1.54,CO,1717980296
240,aver-o-mar,41.4078,-8.7812,19.58,94,0,1.03,PT,1717980297
241,mahina,-17.5065,-149.489,25.87,83,75,8.23,PF,1717980297
242,vilyuchinsk,52.9306,158.4028,18.15,72,97,2.91,RU,1717980297
243,carnarvon,-24.8667,113.6333,20.74,80,97,5.25,AU,1717980297
244,bikenibeu village,1.3673,173.1241,30.98,70,75,3.09,KI,1717980298
245,susuman,62.7833,148.1667,7.21,46,100,0.45,RU,1717980298
246,kavaratti,10.5669,72.642,28.16,84,100,6.9,IN,1717980298
247,goundam,16.4145,-3.6708,35.98,23,7,4.14,ML,1717980298
248,emiliano zapata,18.8333,-99.1833,27.03,73,100,2.57,MX,1717980299
249,merke,42.8728,73.1786,23.87,42,52,5.22,KZ,1717980299
250,geraldton,-28.7667,114.6,20.23,64,75,4.63,AU,1717980299
251,itaguai,-22.8522,-43.7753,20.79,78,0,1.54,BR,1717980299
252,lucea,18.451,-78.1736,29.92,82,100,2.02,JM,1717980300
253,fort bragg,35.139,-79.006,30.75,53,75,3.6,US,1717980300
254,dali,25.7,100.1833,20.53,81,41,1.31,CN,1717980300
255,phan rang-thap cham,11.5667,108.9833,30.95,59,93,3.39,VN,1717980300
256,kavieng,-2.5744,150.7967,28.5,79,100,6.26,PG,1717980301
257,katsuren-haebaru,26.3369,127.8719,27.27,82,75,1.54,JP,1717980301
258,sambava,-14.2667,50.1667,20.01,79,1,5.08,MG,1717980301
259,arraial do cabo,-22.9661,-42.0278,22.89,82,0,12.19,BR,1717980301
260,dinghaicun,26.2847,119.7936,24.51,97,100,2.6,CN,1717980302
261,gafsa,34.425,8.7842,32.12,20,40,6.17,TN,1717980302
262,bonthe,7.5264,-12.505,26.63,81,43,2.69,SL,1717980303
263,nadi,-17.8,177.4167,28.0,54,20,5.14,FJ,1717980303
264,tura,25.5198,90.2201,26.95,88,6,1.62,IN,1717980303
265,whitehorse,60.7161,-135.0538,23.9,22,75,3.09,CA,1717980252
266,kuta,-8.7233,115.1723,26.97,88,75,5.14,ID,1717980304
267,civitavecchia,42.0933,11.7967,22.9,100,11,5.94,IT,1717980304
268,englewood,39.6478,-104.9878,22.44,74,100,9.26,US,1717980304
269,dudinka,69.4058,86.1778,3.71,94,86,3.58,RU,1717980305
270,saint-pierre,-21.3393,55.4781,21.82,68,100,2.06,RE,1717980305
271,lata,40.1629,-8.3327,17.26,98,100,0.28,PT,1717980305
272,rio rico,31.4715,-110.9765,35.03,13,0,5.14,US,1717980305
273,kingscliff,-28.2667,153.5667,19.87,63,100,1.54,AU,1717980306
274,whitby,54.4877,-0.615,10.03,90,100,0.89,GB,1717980306
275,priob'ye,62.5206,65.5964,17.79,65,100,3.44,RU,1717980306
276,malvan,16.0667,73.4667,25.96,90,100,7.2,IN,1717980306
277,gunjur,13.2019,-16.7339,25.04,83,40,3.6,GM,1717980307
278,tidjikja,18.5564,-11.4271,32.88,29,0,4.29,MR,1717980307
279,la passe,45.5549,-0.8967,14.99,78,100,5.11,FR,1717980307
280,smithers,54.7804,-127.1743,22.18,35,75,1.03,CA,1717980307
281,vila velha,-20.3297,-40.2925,19.97,94,0,1.03,BR,1717980308
282,vilhena,-12.7406,-60.1458,20.11,54,0,0.72,BR,1717980308
283,lagunas,-5.2269,-75.6753,25.2,75,14,0.7,PE,1717980308
284,fort st. john,56.2499,-120.8529,11.94,66,100,3.09,CA,1717980308
285,shimoda,34.6667,138.95,20.2,92,100,3.94,JP,1717980309
286,qarauyl,48.9451,79.255,24.58,44,75,1.93,KZ,1717980309
287,wapakoneta,40.5678,-84.1936,23.21,26,0,2.57,US,1717980309
288,youghal,51.95,-7.8506,12.56,100,100,6.75,IE,1717980309
289,sinegorskiy,48.0139,40.8447,17.22,87,96,1.07,RU,1717980310
290,coquimbo,-29.9533,-71.3436,14.85,71,0,2.57,CL,1717980310
291,yangambi,0.8102,24.4336,21.83,92,87,1.03,CD,1717980310
292,sari,36.5633,53.0601,23.27,57,62,2.8,IR,1717980310
293,khovd,48.0056,91.6419,19.84,40,6,0.87,MN,1717980311
294,makhambet,47.6667,51.5833,23.75,52,86,3.67,KZ,1717980311
295,nykobing mors,56.7933,8.8528,11.77,85,34,9.15,DK,1717980311
296,kapa'a,22.0752,-159.319,30.99,73,0,6.69,US,1717980311
297,inongo,-1.95,18.2667,21.93,83,95,2.09,CD,1717980312
298,bogale,16.2833,95.4,27.12,87,99,4.67,MM,1717980312
299,altai,46.3722,96.2583,13.62,57,14,1.59,MN,1717980312
300,cooma,-36.2333,149.1333,6.02,60,5,2.14,AU,1717979944
301,lerwick,60.1545,-1.1494,9.0,77,100,9.65,GB,1717980313
302,ust'-kut,56.7938,105.7672,10.24,87,100,0.45,RU,1717980313
303,kingston,17.997,-76.7936,29.53,70,20,8.23,JM,1717980313
304,anadyr,64.75,177.4833,11.28,54,0,7.0,RU,1717980314
305,san fernando de apure,7.8878,-67.4724,22.53,97,100,0.62,VE,1717980314
306,danville,36.586,-79.395,26.21,61,20,8.23,US,1717980026
307,dwarka,22.2394,68.9678,28.89,80,9,7.54,IN,1717980314
308,monrovia,6.3005,-10.7969,24.87,85,100,2.85,LR,1717980315
309,polyarnyy,69.1989,33.4478,6.46,87,62,2.51,RU,1717980315
310,wusong,30.95,117.7833,20.44,89,100,0.97,CN,1717980315
311,pravokumskoye,44.7694,44.6472,19.09,79,100,4.89,RU,1717980315
312,ripon,54.1352,-1.5212,9.48,91,100,3.09,GB,1717980214
313,sao vicente,-23.9631,-46.3919,26.82,26,0,1.96,BR,1717980316
314,elizabethton,36.3487,-82.2107,19.95,79,100,0.0,US,1717980316
315,machico,32.7,-16.7667,19.45,82,75,2.57,PT,1717980316
316,kattivakkam,13.2167,80.3167,29.05,89,100,5.98,IN,1717980317
317,yetkul',54.8221,61.588,13.06,96,100,4.39,RU,1717980317
318,ilula,-7.6766,36.0366,13.18,93,32,3.17,TZ,1717980317
319,yemetsk,63.4721,41.7941,8.79,91,33,1.7,RU,1717980317
320,canas,10.4294,-85.0931,25.63,93,100,0.65,CR,1717980318
321,enewetak,11.3474,162.3373,28.43,81,29,7.28,MH,1717980318
322,hailar,49.2,119.7,21.79,38,20,2.15,CN,1717980318
323,sandnessjoen,66.0217,12.6316,11.29,72,53,3.5,NO,1717980318
324,kosh-agach,50.0,88.6667,14.61,57,65,2.24,RU,1717980319
325,babana,10.4295,3.815,24.3,83,100,3.82,NG,1717980319
326,ilha de mocambique,-15.0342,40.7358,24.47,69,83,10.06,MZ,1717980319
327,frontera,26.9333,-101.45,36.61,38,0,3.13,MX,1717980319
328,belonia,23.2528,91.4514,28.36,86,37,2.83,IN,1717980320
329,carauari,-4.8828,-66.8958,24.99,87,99,1.21,BR,1717980320
330,babu,24.4167,111.5167,26.55,91,100,1.6,CN,1717980320
331,saudarkrokur,65.7461,-19.6394,3.22,91,100,1.96,IS,1717980320
332,sitka,57.0531,-135.33,10.52,78,92,1.72,US,1717980321
333,kyzyl-mazhalyk,51.1333,90.6,18.28,54,81,1.34,RU,1717980321
334,noumea,-22.2763,166.4572,27.99,99,100,2.65,NC,1717980007
335,yishui,35.7847,118.6281,33.16,26,9,3.06,CN,1717980321
336,kaifeng,34.7911,114.3483,32.96,28,94,3.01,CN,1717980322
337,sunne,59.8376,13.143,8.23,99,89,2.16,SE,1717980322
338,kerman,30.2832,57.0788,13.92,28,0,0.0,IR,1717980322
339,lovrin,45.9681,20.7703,23.45,70,96,4.29,RO,1717980323
340,bara,10.3744,10.7288,26.43,73,31,6.54,NG,1717980323
341,vence,43.7216,7.1123,20.29,87,75,1.54,FR,1717980323
342,gamba,-2.65,10.0,22.2,91,54,2.11,GA,1717980323
343,nemuro,43.3236,145.575,11.45,90,100,7.21,JP,1717980324
344,tarawa,1.419,172.984,31.05,70,75,3.09,KI,1717980324
345,kochenevo,55.0218,82.202,14.66,74,98,2.14,RU,1717980324
346,vila vicosa,38.7777,-7.4179,15.93,82,100,1.82,PT,1717980324
347,mao,39.8885,4.2658,20.31,88,0,2.57,ES,1717980325
348,bekasi,-6.2349,106.9896,30.83,73,0,0.88,ID,1717980325
349,kirakira,-10.4544,161.9205,29.36,75,60,4.6,SB,1717980325
350,rawson,-43.3002,-65.1023,10.77,68,7,3.43,AR,1717980325
351,brak,27.5496,14.2714,27.33,11,0,2.0,LY,1717980326
352,klyuchi,52.2667,79.1667,20.17,82,100,3.8,RU,1717980326
353,nishinoomote,30.7333,131.0,24.31,83,75,2.06,JP,1717980326
354,enterprise,36.0252,-115.2419,38.51,7,75,4.63,US,1717980326
355,itajobi,-21.3181,-49.0544,20.27,45,64,3.0,BR,1717980327
356,la ronge,55.1001,-105.2842,12.14,62,75,2.57,CA,1717980327
357,sur,22.5667,59.5289,30.33,59,0,3.76,OM,1717980327
358,el granada,37.5027,-122.4694,23.84,77,75,9.26,US,1717980193
359,khandyga,62.6667,135.6,19.51,35,68,1.81,RU,1717980328
360,margate,51.3813,1.3862,14.06,72,100,2.24,GB,1717980325
361,primorsko-akhtarsk,46.0497,38.1747,17.35,86,8,2.73,RU,1717980328
362,sirte,31.2089,16.5887,24.28,43,0,4.48,LY,1717980328
363,volodarskiy,46.4013,48.5409,22.97,56,52,2.89,RU,1717980328
364,remire-montjoly,4.9167,-52.2667,26.02,94,40,0.0,GF,1717980329
365,bardai,11.65,7.2333,26.39,62,100,6.27,NG,1717980329
366,dehdasht,30.7949,50.5646,28.89,23,0,1.95,IR,1717980329
367,kapit,2.0167,112.9333,28.64,70,23,0.35,MY,1717980329
368,kisesa,-3.0833,34.15,19.34,60,100,4.51,TZ,1717980330
369,sunland park,31.7965,-106.58,35.27,14,0,4.63,US,1717980330
370,olyokminsk,60.3736,120.4264,20.69,55,54,1.38,RU,1717980330
371,taman',45.2117,36.7161,23.02,74,1,3.58,RU,1717980330
372,maceio,-9.6658,-35.7353,24.69,88,20,0.51,BR,1717980331
373,gobabis,-22.45,18.9667,8.85,78,38,6.66,NA,1717980331
374,yuli,9.6989,10.2744,25.42,80,19,4.16,NG,1717980331
375,goalpara,26.1667,90.6167,28.1,81,63,1.02,IN,1717980331
376,taksimo,56.3444,114.8794,16.53,47,0,1.13,RU,1717980332
377,ust-nera,64.5667,143.2,12.38,31,25,0.96,RU,1717980332
378,barra do garcas,-15.89,-52.2567,21.19,53,100,0.94,BR,1717980332
379,merizo village,13.2658,144.6691,31.31,81,100,6.32,GU,1717980333
380,grand baie,-20.0182,57.5802,24.26,83,85,1.34,MU,1717980333
381,mogocha,53.7333,119.7667,11.86,82,99,2.55,RU,1717980333
382,saveh,35.0213,50.3566,25.72,23,0,0.78,IR,1717980333
383,nizwa,22.9333,57.5333,26.35,47,0,0.93,OM,1717980334
384,koungou,-12.7336,45.2042,26.84,69,75,7.72,YT,1717980334
385,buzuluk,52.7807,52.2635,17.2,78,0,0.45,RU,1717980334
386,suances,43.4334,-4.0434,16.66,97,100,1.54,ES,1717980334
387,rio grande,-32.035,-52.0986,22.06,87,100,4.4,BR,1717980335
388,pemangkat,1.1667,108.9667,27.92,80,99,2.91,ID,1717980335
389,ajuchitlan del progreso,18.1519,-100.4835,36.82,25,7,1.88,MX,1717980335
390,las terrenas,19.311,-69.5428,26.88,85,100,2.38,DO,1717980335
391,novoaltaysk,53.3917,83.9363,16.67,96,94,2.65,RU,1717980336
392,saraqib,35.8645,36.8059,22.34,69,0,2.72,SY,1717980336
393,kapuskasing,49.4169,-82.4331,8.05,81,75,2.57,CA,1717980336
394,yamada,39.4667,141.95,17.07,96,100,2.71,JP,1717980337
395,idfu,24.9803,32.8747,29.94,18,0,4.21,EG,1717980337
396,las heras,-46.5419,-68.9359,3.1,91,45,1.48,AR,1717980337
397,el rosario,24.2556,-107.1828,27.69,67,0,3.29,MX,1717980130
398,santiago de cao,-7.9589,-79.2392,18.07,82,75,3.09,PE,1717980338
399,freetown,8.484,-13.2299,26.51,81,33,2.7,SL,1717980338
400,san jose del guaviare,2.5729,-72.6459,23.28,96,100,0.86,CO,1717980338
401,yuzhno-kurilsk,44.0306,145.8556,11.32,93,100,5.26,RU,1717980339
402,poronaysk,49.2167,143.1167,8.42,96,100,3.7,RU,1717980339
403,don benito,38.9563,-5.8616,19.96,62,99,3.06,ES,1717980339
404,thinadhoo,0.5333,72.9333,28.33,74,100,2.59,MV,1717980339
405,gorontalo,0.5412,123.0595,28.25,78,98,0.92,ID,1717980340
406,candelaria,13.9311,121.4233,29.92,68,100,1.63,PH,1717980340
407,petropavlivka,48.4564,36.4367,17.76,78,95,2.11,UA,1717980340
408,tanjung pandan,-2.75,107.65,28.7,78,100,2.97,ID,1717980340
409,vertientes,21.2594,-78.1464,24.34,89,100,1.15,CU,1717980341
410,kuraymah,18.55,31.85,33.01,14,1,4.59,SD,1717980341
411,barrouallie,13.2333,-61.2667,26.79,83,40,5.66,VC,1717980341
412,kruisfontein,-34.0033,24.7314,10.76,71,7,1.69,ZA,1717980341
413,benalla,-36.55,145.9833,10.91,65,71,0.37,AU,1717980342
414,alice springs,-23.7,133.8833,16.75,51,0,0.0,AU,1717980342
415,coahuayana de hidalgo,18.7,-103.6583,26.43,69,4,2.22,MX,1717980342
416,manzhouli,49.6,117.4333,21.24,45,16,3.26,CN,1717980342
417,zouerate,22.7187,-12.4521,28.86,24,4,5.71,MR,1717980343
418,ocean shores,46.9737,-124.1563,15.21,85,100,6.17,US,1717980184
419,hammerfest,70.6634,23.6821,11.25,71,20,4.63,NO,1717980343
420,farroupilha,-29.225,-51.3478,20.91,68,0,3.09,BR,1717980343
421,sussex,41.1834,-74.6663,21.07,64,75,0.0,US,1717980344
422,crane,31.3974,-102.3501,35.79,23,26,7.79,US,1717980344
423,xai-xai,-25.0519,33.6442,18.29,68,39,2.73,MZ,1717980344
424,davlekanovo,54.2215,55.0343,14.7,90,9,1.87,RU,1717980344
425,santa ana,33.7456,-117.8678,28.53,66,40,4.63,US,1717980229
426,whitecourt,54.1502,-115.6855,11.58,66,100,2.06,CA,1717980345
427,mount isa,-20.7333,139.5,21.87,33,6,4.12,AU,1717980345
428,rakops,-21.0167,24.3333,11.03,59,0,5.05,BW,1717980345
429,labytnangi,66.6572,66.4183,9.98,79,52,1.93,RU,1717980346
430,igarka,67.4667,86.5833,7.23,95,91,6.26,RU,1717980346
431,kalianget,-7.05,113.9333,28.66,76,14,5.51,ID,1717980346
432,mata-utu,-13.2816,-176.1745,27.49,75,74,9.8,WF,1717980346
433,exeter,50.7236,-3.5275,13.3,88,100,0.45,GB,1717980347
434,awjilah,29.1081,21.2869,25.58,34,0,2.76,LY,1717980347
435,siguiri,11.6667,-9.5,26.39,77,88,1.03,GN,1717980347
436,miri,4.4148,114.0089,28.08,89,40,0.0,MY,1717980347
437,lodwar,3.1191,35.5973,28.98,45,100,6.0,KE,1717980348
438,urangan,-25.3,152.9,20.11,56,0,4.92,AU,1717980348
439,bilmak,47.3624,36.6511,18.18,74,100,1.1,UA,1717980348
440,akureyri,65.6835,-18.0878,4.96,87,100,2.57,IS,1717980349
441,chibougamau,49.9168,-74.3659,13.79,100,100,3.09,CA,1717980349
442,buka,40.8108,69.1986,24.72,34,13,2.49,UZ,1717980349
443,flin flon,54.7682,-101.865,13.62,60,6,3.31,CA,1717980349
444,el rama,12.1596,-84.2195,26.41,92,100,1.66,NI,1717980350
445,chonchi,-42.6128,-73.8092,9.56,93,100,2.39,CL,1717980350
446,kinablangan,7.6947,126.5503,26.56,80,100,1.82,PH,1717980350
447,new plymouth,-39.0667,174.0833,16.0,100,45,5.71,NZ,1717980340
448,tena,-0.9833,-77.8167,21.65,98,62,1.18,EC,1717980351
449,kiuruvesi,63.65,26.6167,6.14,97,100,1.96,FI,1717980351
450,fisterra,42.9049,-9.2629,13.75,80,5,10.23,ES,1717980351
451,xilin hot,43.9667,116.0333,26.33,22,96,8.82,CN,1717980352
452,lobujya,27.95,86.8167,0.85,46,0,1.36,NP,1717980352
453,port augusta,-32.5,137.7667,19.27,36,98,6.84,AU,1717980352
454,wewak,-3.5534,143.6268,29.54,73,45,2.9,PG,1717980352
455,trondheim,63.4305,10.3951,12.22,79,100,2.24,NO,1717980353
456,mar del plata,-38.0023,-57.5575,14.49,90,40,5.36,AR,1717980353
457,asmar,35.0333,71.3581,17.84,38,1,4.22,AF,1717980353
458,puerto lempira,15.2667,-83.7667,27.08,78,40,2.57,HN,1717980354
459,santa elena de uairen,4.6167,-61.1333,19.73,95,99,1.6,VE,1717980354
460,taroa,8.7058,171.2275,28.68,77,39,7.08,MH,1717980354
461,tual,-5.6667,132.75,26.92,84,15,9.6,ID,1717980354
462,hpa-an,16.8906,97.6333,26.48,90,100,1.24,MM,1717980355
463,salahonda,2.1019,-78.7217,26.52,85,99,6.95,CO,1717980355
464,jabor,5.921,169.6434,28.81,77,24,6.1,MH,1717980355
465,coronel suarez,-37.4547,-61.9334,12.24,51,99,4.79,AR,1717980355
466,goz beida,13.95,20.55,28.74,46,100,2.32,TD,1717980356
467,selfoss,63.9331,-20.9971,7.25,72,1,2.63,IS,1717980356
468,jayapura,-2.5333,140.7,29.66,71,14,1.48,ID,1717980356
469,thika,-1.0333,37.0693,17.76,95,54,0.76,KE,1717980357
470,huilong,31.8111,121.655,26.29,57,100,3.18,CN,1717980357
471,al ghayzah,16.2079,52.176,29.31,84,5,1.76,YE,1717980357
472,oued zem,32.8627,-6.5736,16.48,68,100,2.2,MA,1717980357
473,bukhara,39.7747,64.4286,21.97,60,0,3.09,UZ,1717980358
474,howard springs,-12.497,131.047,24.93,74,7,3.35,AU,1717980358
475,vila franca do campo,37.7167,-25.4333,18.27,99,8,2.34,PT,1717980358
476,lubango,-14.9172,13.4925,15.92,55,20,3.09,AO,1717980359
477,siuna,13.7332,-84.7773,25.19,95,100,1.25,NI,1717980359
478,airuk,7.2772,168.8203,28.63,78,28,6.62,MH,1717980359
479,sangmelima,2.9333,11.9833,19.62,99,85,1.05,CM,1717980359
480,nizhnevartovsk,60.9344,76.5531,18.01,45,0,3.0,RU,1717980360
481,quellon,-43.1167,-73.6167,9.95,86,100,5.59,CL,1717980360
482,nantucket,41.2835,-70.0995,16.68,88,0,3.09,US,1717980360
483,kham sakae saeng,15.3322,102.1728,28.25,73,100,2.89,TH,1717980360
484,kuala terengganu,5.3302,103.1408,25.97,89,20,1.54,MY,1717980361
485,nasiriyah,31.0521,46.261,36.93,16,100,6.13,IQ,1717980361
486,sorong,-0.8833,131.25,27.16,82,100,1.27,ID,1717980361
487,dayr hafir,36.1569,37.7078,24.79,55,0,4.19,SY,1717980361
488,sievi,63.9,24.5,5.13,96,35,2.23,FI,1717980362
489,aripuana,-9.1667,-60.6333,24.11,54,13,0.83,BR,1717980362
490,newman,37.3138,-121.0208,32.38,36,1,1.79,US,1717980362
491,dobryanka,58.4619,56.4165,12.65,96,19,1.64,RU,1717980362
492,rio claro,-22.4114,-47.5614,18.61,51,7,2.46,BR,1717980363
493,nyurba,63.2842,118.3319,20.13,63,68,1.02,RU,1717980363
494,mareeba,-17.0,145.4333,23.6,57,98,1.92,AU,1717980363
495,lake mills,43.0814,-88.9118,19.1,59,100,4.12,US,1717980364
496,blenheim,-41.516,173.9528,18.62,74,0,0.89,NZ,1717980364
497,shantobe,52.4581,68.1839,17.47,88,87,4.1,KZ,1717980364
498,undurkhaan,47.3194,110.6556,22.8,35,30,4.41,MN,1717980364
499,kodumudi,11.0775,77.8836,26.36,72,100,6.95,IN,1717980365
500,antofagasta,-23.65,-70.4,16.6,80,96,1.09,CL,1717980365
501,sidi khaled,34.387,4.9879,28.37,25,100,6.86,DZ,1717980365
502,xuanzhou,30.9525,118.7553,22.1,86,100,2.86,CN,1717980366
503,acapulco de juarez,16.8634,-99.8901,28.9,79,100,5.14,MX,1717980209
504,dapa,9.7594,126.0531,28.26,78,100,1.06,PH,1717980366
505,tulagi,-9.0996,160.1476,28.54,78,48,5.67,SB,1717980366
506,arteche,12.2645,125.4048,30.6,69,100,2.54,PH,1717980366
507,masuguru,-11.3667,38.4167,18.5,81,65,1.76,TZ,1717980367
508,labasa,-16.4167,179.3833,27.36,57,100,3.27,FJ,1717980367
509,uturoa,-16.7333,-151.4333,25.79,81,69,5.66,PF,1717980368
510,hadibu,12.65,54.0333,28.39,78,41,7.7,YE,1717980368
511,voskresenskoye,56.8381,45.4317,12.65,86,100,1.54,RU,1717980369
512,kupang,-10.1667,123.5833,28.32,78,20,7.72,ID,1717980369
513,dunda,-8.1167,34.25,13.05,85,98,1.02,TZ,1717980369
514,saint-philippe,-21.3585,55.7679,21.77,84,50,4.63,RE,1717980369
515,megion,61.0296,76.1136,18.01,47,5,1.72,RU,1717980370
516,sechura,-5.5569,-80.8222,21.22,67,3,5.97,PE,1717980370
517,shubarkuduk,49.1447,56.4872,18.14,77,10,1.26,KZ,1717980370
518,el bauga,18.262,33.9081,31.48,43,12,12.44,SD,1717980370
519,medicine hat,50.0501,-110.6683,22.24,37,40,5.66,CA,1717980371
520,trairi,-3.2778,-39.2689,25.65,84,47,4.11,BR,1717980371
521,port arthur,38.8,121.2667,20.12,84,100,5.85,CN,1717980371
522,chemnitz,50.6667,12.75,11.92,82,81,0.72,DE,1717980371
523,gilgit,35.9221,74.3087,17.9,48,0,1.19,PK,1717980372
524,san jose,37.3394,-121.895,26.4,49,0,8.75,US,1717980002
525,nuku'alofa,-21.1333,-175.2,26.19,61,20,6.17,TO,1717980372
526,gornozavodsk,58.3758,58.3211,10.75,97,97,1.53,RU,1717980286
527,viedma,-40.8135,-62.9967,11.24,68,0,3.37,AR,1717980372
528,visby,57.6409,18.296,11.01,81,4,6.69,SE,1717980373
529,lalpur,22.2,69.9667,27.96,80,1,5.82,IN,1717980373
530,vuktyl,63.8567,57.3094,13.95,92,100,2.24,RU,1717980373
531,arar,30.9753,41.0381,31.01,15,0,9.26,SA,1717980373
532,al kharj,24.155,47.3346,32.32,12,1,4.0,SA,1717980374
533,den burg,53.0542,4.7972,12.76,81,100,3.09,NL,1717980374
534,tomatlan,19.9333,-105.25,26.61,64,1,3.73,MX,1717980375
535,san luis de la loma,17.2706,-100.8939,27.47,73,99,3.76,MX,1717980375
536,sesheke,-17.4759,24.2968,10.9,76,0,2.54,ZM,1717980375
